{
  "locations": [
    {
      "uid": "77538c4e-2135-11f1-84f0-005056010707",
      "code": "20260316134107",
      "externalId": "2033",
      "name": "AACO DAVIDSON",
      "street": "Havenkant 6",
      "city": "Leuven",
      "zip": "3000",
      "country": "Belgium",
      "latitude": 50.8873413,
      "longitude": 4.7005038,
      "toSynchronize": false
    },
    {
      "uid": "e6d82255-2861-11f1-a2fe-005056010707",
      "code": "20260325164646",
      "externalId": null,
      "name": "Stream Software",
      "street": "Potvlietlaan 4",
      "city": "Antwerpen",
      "zip": "2600",
      "country": "",
      "latitude": null,
      "longitude": null,
      "toSynchronize": false
    },
    {
      "uid": "44b3e977-2783-11f1-a2fe-005056010707",
      "code": "code-v1",
      "externalId": "externalId-v1",
      "name": "name-v1",
      "street": "Stationsplein 14",
      "city": "Antwerp",
      "zip": "2018",
      "country": "Belgium",
      "latitude": 51.1341955,
      "longitude": 4.4751428,
      "toSynchronize": false
    },
    {
      "uid": "fa4acd29-285c-11f1-a2fe-005056010707",
      "code": "CUS-001",
      "externalId": null,
      "name": "Customer1",
      "street": "Markt 5",
      "city": "Bruges",
      "zip": "8000",
      "country": "Belgium",
      "latitude": 51.2086225,
      "longitude": 3.2250864,
      "toSynchronize": true
    },
    {
      "uid": "e99a8663-38a8-11f1-a803-005056010707",
      "code": "CUS-002",
      "externalId": null,
      "name": "Arne Albrecht",
      "street": "Lippenslaan 347",
      "city": "Knokke",
      "zip": "8300",
      "country": "Belgium",
      "latitude": 51.3518122,
      "longitude": 3.2887656,
      "toSynchronize": true
    },
    {
      "uid": "927f671a-277b-11f1-a2fe-005056010707",
      "code": "CUST-2048",
      "externalId": "EXT-993421",
      "name": "Acme Logistics Ltd",
      "street": "Baker Street 221B",
      "city": "London",
      "zip": "NW1 6XE",
      "country": "United Kingdom",
      "latitude": 51.5237791,
      "longitude": -0.1584514,
      "toSynchronize": true
    },
    {
      "uid": "2d0dcc47-38aa-11f1-a803-005056010707",
      "code": "LOC-ADVCOMM",
      "externalId": null,
      "name": "Advanced Communications",
      "street": "Mediapark 5",
      "city": "Ghent",
      "zip": "9000",
      "country": "BE",
      "latitude": 51.06783069999999,
      "longitude": 3.7290914,
      "toSynchronize": true
    },
    {
      "uid": "1cdabf58-38aa-11f1-a803-005056010707",
      "code": "LOC-DISPLAYTECH",
      "externalId": null,
      "name": "Displaytech",
      "street": "Technologielaan 12",
      "city": "Leuven",
      "zip": "3001",
      "country": "BE",
      "latitude": 50.8522066,
      "longitude": 4.7331362,
      "toSynchronize": true
    },
    {
      "uid": "479a3ea8-38aa-11f1-a803-005056010707",
      "code": "LOC-EASI",
      "externalId": null,
      "name": "EASI",
      "street": "Rue d'Arlon 50",
      "city": "Namur",
      "zip": "5000",
      "country": "BE",
      "latitude": 50.8400867,
      "longitude": 4.3722889,
      "toSynchronize": true
    },
    {
      "uid": "c7f1a08e-38ad-11f1-a803-005056010707",
      "code": "LOC-GLOBALMEDIA-01",
      "externalId": null,
      "name": "Global Media",
      "street": "Mediastraat 10",
      "city": "Brussels",
      "zip": "1000",
      "country": "BE",
      "latitude": 50.8427501,
      "longitude": 4.3515499,
      "toSynchronize": true
    },
    {
      "uid": "0266c124-38aa-11f1-a803-005056010707",
      "code": "LOC-TEST",
      "externalId": null,
      "name": "Test",
      "street": "Teststraat 1",
      "city": "Brussels",
      "zip": "1000",
      "country": "BE",
      "latitude": 50.8427501,
      "longitude": 4.3515499,
      "toSynchronize": true
    },
    {
      "uid": "58a4562b-38aa-11f1-a803-005056010707",
      "code": "LOC-UNIVERSAL",
      "externalId": null,
      "name": "Universal Services",
      "street": "Serviceweg 22",
      "city": "Mechelen",
      "zip": "2800",
      "country": "BE",
      "latitude": 51.0208132,
      "longitude": 4.4737954,
      "toSynchronize": true
    },
    {
      "uid": "4e0cceab-38aa-11f1-a803-005056010707",
      "code": "LOC-UPSTYLE",
      "externalId": null,
      "name": "Upstyle Inc.",
      "street": "Fashion Avenue 88",
      "city": "Antwerp",
      "zip": "2000",
      "country": "BE",
      "latitude": 51.2252665,
      "longitude": 4.414603,
      "toSynchronize": true
    },
    {
      "uid": "bb8983bf-38ad-11f1-a803-005056010707",
      "code": "LOC-URMOM-01",
      "externalId": null,
      "name": "ur mom",
      "street": "Rue de France 1",
      "city": "Brussels",
      "zip": "1000",
      "country": "BE",
      "latitude": 50.8347303,
      "longitude": 4.332933,
      "toSynchronize": true
    },
    {
      "uid": "cac5b20d-285c-11f1-a2fe-005056010707",
      "code": "SUP-001",
      "externalId": null,
      "name": "supplier1",
      "street": "Rue du Commerce 1",
      "city": "Brussels",
      "zip": "1000",
      "country": "Belgium",
      "latitude": 50.8394667,
      "longitude": 4.3673141,
      "toSynchronize": true
    }
  ],
  "nextPageToken": "2NV6CVQGYRWWAED3LY7QWGAXXKIZUWLYRHS575XHQB34SPJZPBN24XILJRCVDBNQMBSRJKCJHNYLETOKNGGDUVRRHXXUOX5LESDCYXI=",
  "resultSizeEstimate": 15
}